City,Lat,Lng,Max Temp,Humidity,Cloudiness,Wind Speed,Country,Date
upernavik,72.7868,-56.1549,250.51,69,28,2.21,GL,1612475094
bowen,-20.0167,148.2333,298.15,88,81,3.09,AU,1612475095
hermanus,-34.4187,19.2345,293.15,78,10,0.45,ZA,1612475095
saskylakh,71.9167,114.0833,232.23,75,0,1.71,RU,1612475095
bredasdorp,-34.5322,20.0403,293.15,77,98,2.57,ZA,1612475095
padang,-0.9492,100.3543,298.15,94,40,0.51,ID,1612475095
el playon,7.4713,-73.2031,300.15,57,20,4.12,CO,1612475095
matara,5.9485,80.5353,296.01,85,97,3.1,LK,1612474882
butaritari,3.0707,172.7902,299.88,83,100,6.57,KI,1612475095
ugoofaaru,5.6667,73.0,300.59,71,100,3.2,MV,1612475095
chokurdakh,70.6333,147.9167,248.92,87,21,9.09,RU,1612475096
gamba,-2.65,10.0,299.56,85,99,1.96,GA,1612475096
arraial do cabo,-22.9661,-42.0278,301.15,73,0,7.72,BR,1612475096
busselton,-33.65,115.3333,282.59,85,20,5.74,AU,1612475096
rabak,13.1809,32.74,295.95,21,0,9.11,SD,1612475096
hobart,-42.8794,147.3294,293.71,73,75,2.06,AU,1612475096
salinas,36.6777,-121.6555,289.15,36,1,3.09,US,1612475084
albany,42.6001,-73.9662,276.15,52,20,3.09,US,1612474804
atuona,-9.8,-139.0333,299.16,69,59,4.88,PF,1612475097
provideniya,64.3833,-173.3,250.51,87,100,12.57,RU,1612474984
mataura,-46.1927,168.8643,288.84,56,36,1.73,NZ,1612474951
rikitea,-23.1203,-134.9692,299.13,66,91,4.4,PF,1612475097
dingle,10.9995,122.6711,296.51,92,50,3.51,PH,1612475097
fairbanks,64.8378,-147.7164,249.26,77,20,1.17,US,1612475087
jamestown,42.097,-79.2353,276.48,44,1,4.63,US,1612474950
san patricio,28.017,-97.5169,303.71,48,20,5.66,US,1612475097
catamarca,-28.4696,-65.7852,302.59,50,11,0.45,AR,1612475097
avarua,-21.2078,-159.775,302.15,70,100,3.09,CK,1612475097
russkaya polyana,49.417,31.9201,274.38,90,100,10.4,UA,1612475098
ushuaia,-54.8,-68.3,285.15,71,20,16.98,AR,1612475098
tuktoyaktuk,69.4541,-133.0374,236.15,67,20,5.14,CA,1612475006
laguna,38.421,-121.4238,288.71,44,1,4.63,US,1612475098
esperance,-33.8667,121.9,286.15,76,90,2.57,AU,1612475098
vaini,-21.2,-175.2,300.15,94,75,3.09,TO,1612474958
puerto ayora,-0.7393,-90.3518,302.15,70,0,3.6,EC,1612475098
tiksi,71.6872,128.8694,242.52,87,100,2.58,RU,1612475098
georgetown,5.4112,100.3354,298.71,78,20,1.03,MY,1612474900
talant,47.3369,5.0089,280.15,100,0,1.54,FR,1612475099
new norfolk,-42.7826,147.0587,293.71,56,88,0.85,AU,1612475099
sergeyevka,53.88,67.4158,273.84,98,99,4.75,KZ,1612475099
kavaratti,10.5669,72.642,300.38,70,63,2.43,IN,1612475099
nikolskoye,59.7035,30.7861,260.93,85,75,3.0,RU,1612475099
iqaluit,63.7506,-68.5145,262.15,85,90,10.29,CA,1612475091
cidreira,-30.1811,-50.2056,294.99,70,16,8.88,BR,1612475099
kaitong,44.8135,123.15,258.95,92,37,3.79,CN,1612475099
yulara,-25.2406,130.9889,292.15,68,75,4.63,AU,1612475100
saint-philippe,-21.3585,55.7679,299.15,73,37,2.57,RE,1612474902
kudahuvadhoo,2.6708,72.8944,300.83,74,100,6.99,MV,1612475100
shenkursk,62.1091,42.896,262.16,96,94,1.87,RU,1612475100
piracaia,-23.0539,-46.3581,305.15,54,40,4.63,BR,1612475100
faanui,-16.4833,-151.75,300.55,68,41,2.76,PF,1612475100
kloulklubed,7.0419,134.2556,301.45,75,5,9.84,PW,1612475100
pleasanton,37.6624,-121.8747,288.71,35,1,5.14,US,1612474867
ossora,59.2353,163.0719,259.07,92,93,6.48,RU,1612475101
demba,-5.51,22.2667,294.95,85,100,0.96,CD,1612475101
meulaboh,4.1363,96.1285,297.67,87,55,2.22,ID,1612475103
bayan,46.0833,127.4,252.85,90,100,2.66,CN,1612475103
barrow,71.2906,-156.7887,240.15,75,1,2.57,US,1612475103
otane,-39.8833,176.6333,288.71,72,88,4.58,NZ,1612475103
albania,41.0,20.0,280.15,93,28,1.54,AL,1612475103
chicama,-7.8447,-79.1469,296.15,78,98,4.63,PE,1612475103
kruisfontein,-34.0033,24.7314,292.59,85,0,1.79,ZA,1612475103
te anau,-45.4167,167.7167,290.43,66,82,0.25,NZ,1612475104
paamiut,61.994,-49.6678,264.78,76,0,4.2,GL,1612475104
kavieng,-2.5744,150.7967,301.69,75,48,3.2,PG,1612475104
kapaa,22.0752,-159.319,294.26,63,40,6.17,US,1612475104
babushkin,51.7122,105.8647,265.03,95,96,3.09,RU,1612475104
waipawa,-41.4122,175.5153,288.15,67,90,10.29,NZ,1612475105
asyut,27.181,31.1837,285.15,71,0,5.16,EG,1612474944
nyurba,63.2842,118.3319,233.81,81,76,2.5,RU,1612475105
aklavik,68.2191,-135.0107,232.15,66,40,0.99,CA,1612475105
east london,-33.0153,27.9116,295.99,78,91,3.27,ZA,1612475106
korla,41.7597,86.1469,269.39,83,25,1.42,CN,1612475106
dikson,73.5069,80.5464,252.24,91,100,6.18,RU,1612475106
prata,-19.3072,-48.9242,299.91,62,81,1.2,BR,1612475106
high level,58.5169,-117.136,247.15,70,75,4.12,CA,1612475107
airai,-8.9266,125.4092,289.42,100,100,1.46,TL,1612475107
punta arenas,-53.15,-70.9167,289.15,41,0,13.38,CL,1612475107
coahuayana,18.7333,-103.6833,304.15,42,20,2.9,MX,1612475107
touros,-5.1989,-35.4608,301.15,65,0,6.69,BR,1612475107
kununurra,-15.7667,128.7333,299.15,100,100,0.51,AU,1612475108
baykit,61.67,96.37,253.22,88,99,1.05,RU,1612475108
rundu,-17.9333,19.7667,295.1,64,100,1.42,NA,1612475108
hoi an,15.8794,108.335,296.15,78,40,2.06,VN,1612475108
calamar,10.2511,-74.9146,304.15,66,40,7.2,CO,1612475108
mayang imphal,24.6167,93.8833,282.64,76,0,0.48,IN,1612475109
arlit,18.7369,7.3853,292.85,23,9,4.59,NE,1612475109
kaitangata,-46.2817,169.8464,287.04,66,34,4.92,NZ,1612475109
la rioja,42.25,-2.5,283.15,87,0,2.06,ES,1612474874
lebu,-37.6167,-73.65,293.71,58,0,2.37,CL,1612475109
bluff,-46.6,168.3333,285.28,66,55,2.05,NZ,1612475109
nanortalik,60.1432,-45.2371,267.43,81,95,3.03,GL,1612475109
codrington,-38.2667,141.9667,286.55,87,100,7.19,AU,1612475110
clyde river,70.4692,-68.5914,244.15,76,75,5.66,CA,1612475110
yellowknife,62.456,-114.3525,242.59,62,1,5.14,CA,1612474623
hirara,24.8,125.2833,289.15,72,40,2.57,JP,1612475110
lasa,46.6166,10.7002,276.48,80,0,1.33,IT,1612475110
aswan,24.0934,32.907,288.81,45,0,4.71,EG,1612475110
marsh harbour,26.5412,-77.0636,291.75,51,9,2.74,BS,1612475111
victoria,22.2855,114.1577,290.93,80,24,0.45,HK,1612474964
kutahya,39.4242,29.9833,278.54,76,0,1.45,TR,1612475111
aden,12.7794,45.0367,296.79,69,0,6.72,YE,1612474919
ancud,-41.8697,-73.8203,299.15,41,0,4.63,CL,1612475069
severo-kurilsk,50.6789,156.125,260.33,88,78,4.33,RU,1612475111
hithadhoo,-0.6,73.0833,301.09,75,85,4.69,MV,1612475111
taraza,7.5836,-75.4007,302.37,69,96,1.68,CO,1612475074
vila franca do campo,37.7167,-25.4333,286.15,71,40,5.66,PT,1612475112
mocuba,-16.8392,36.9856,296.78,95,93,0.7,MZ,1612475112
tari,12.4086,4.4914,298.36,18,0,5.49,NG,1612475112
pevek,69.7008,170.3133,248.97,77,0,5.37,RU,1612475112
cherskiy,68.75,161.3,249.1,73,20,5.23,RU,1612475112
huangnihe,43.5583,128.0239,255.79,91,13,0.73,CN,1612475112
vanimo,-2.6741,141.3028,299.24,82,89,1.72,PG,1612475112
orange,33.7,-117.7675,292.04,59,20,4.12,US,1612475112
vao,-22.6667,167.4833,299.08,86,18,9.79,NC,1612475113
sabana de torres,7.3915,-73.4957,300.15,57,20,4.12,CO,1612475113
russell,32.3502,-85.1999,287.15,30,75,4.12,US,1612475113
great falls,47.5002,-111.3008,276.15,32,90,12.35,US,1612475113
la serena,-29.9078,-71.2542,290.15,77,75,5.66,CL,1612475113
coihaique,-45.5752,-72.0662,304.15,20,0,2.57,CL,1612475113
cape town,-33.9258,18.4232,294.15,68,0,5.14,ZA,1612474654
neya,58.2972,43.8681,260.49,96,99,1.21,RU,1612475114
tahta,26.7693,31.5021,287.15,58,40,3.6,EG,1612475114
namatanai,-3.6667,152.4333,300.58,75,92,0.63,PG,1612475114
lvovskoye,44.9944,38.6354,284.26,81,0,6.0,RU,1612475114
bethel,41.3712,-73.414,277.15,48,1,2.57,US,1612475114
konstantinovka,49.6167,127.9833,251.54,91,99,2.55,RU,1612475114
itoman,26.1247,127.6694,288.15,67,20,3.09,JP,1612475115
port moresby,-9.4431,147.1797,298.15,94,40,2.57,PG,1612475115
tinaquillo,9.9186,-68.3047,302.65,53,98,0.8,VE,1612475115
loughborough,52.7667,-1.2,280.37,100,75,3.09,GB,1612474856
sorland,67.667,12.6934,273.15,74,20,2.06,NO,1612475115
castro,-24.7911,-50.0119,294.5,93,96,2.98,BR,1612475115
marco,25.9726,-81.729,293.15,40,1,3.09,US,1612475116
wilmington,34.2257,-77.9447,283.15,40,1,3.09,US,1612475019
toamasina,-18.1667,49.3833,298.15,94,20,2.06,MG,1612475116
fort saint james,54.4333,-124.25,266.61,95,100,0.65,CA,1612475116
khatanga,71.9667,102.5,238.22,78,0,4.09,RU,1612475116
byron bay,-28.65,153.6167,295.15,100,90,1.54,AU,1612474711
manzhouli,49.6,117.4333,260.73,90,63,7.06,CN,1612475116
hay river,60.8156,-115.7999,243.15,69,100,6.69,CA,1612475116
mahebourg,-20.4081,57.7,299.15,78,40,4.63,MU,1612475116
campoverde,-8.4753,-74.8058,301.15,69,75,1.03,PE,1612475117
whitehorse,60.7161,-135.0538,247.15,76,75,0.83,CA,1612475117
kholodnyy,62.7167,147.95,247.51,85,100,1.63,RU,1612475117
caucaia,-3.7361,-38.6531,301.15,78,0,4.12,BR,1612475117
qaanaaq,77.484,-69.3632,243.96,61,65,3.64,GL,1612475117
rumuruti,0.267,36.5389,286.87,77,0,1.62,KE,1612475117
glasgow,55.8652,-4.2576,278.15,93,90,5.66,GB,1612474854
kamenka,51.3223,42.7678,277.04,98,100,6.94,RU,1612475117
gwadar,25.1216,62.3254,292.55,31,0,4.34,PK,1612475118
honiara,-9.4333,159.95,300.73,78,92,2.27,SB,1612475118
port blair,11.6667,92.75,298.5,82,0,3.16,IN,1612475118
wajir,1.7471,40.0573,298.05,60,0,7.36,KE,1612475118
longyearbyen,78.2186,15.6401,266.15,68,75,5.66,SJ,1612474981
tasiilaq,65.6145,-37.6368,270.15,93,90,10.29,GL,1612475118
ambala,30.3783,76.7808,281.77,91,0,1.6,IN,1612475118
sept-iles,50.2001,-66.3821,273.15,74,75,1.03,CA,1612475118
taltal,-25.4,-70.4833,294.51,59,23,3.11,CL,1612475119
enid,36.3956,-97.8784,283.15,32,1,7.2,US,1612475119
olafsvik,64.8945,-23.7142,276.67,79,95,18.02,IS,1612475119
plettenberg bay,-34.0527,23.3716,291.72,89,4,0.59,ZA,1612475119
thompson,55.7435,-97.8558,251.15,71,90,4.12,CA,1612475119
cancun,21.1743,-86.8466,299.15,50,40,7.72,MX,1612474920
lishu,43.3047,124.3278,264.05,94,0,5.82,CN,1612475119
itarema,-2.9248,-39.9167,299.61,78,99,5.75,BR,1612475119
kimry,56.8667,37.35,262.32,96,100,3.33,RU,1612475119
souillac,-20.5167,57.5167,299.15,78,40,4.63,MU,1612475120
khandbari,27.3747,87.2039,283.66,46,0,1.16,NP,1612475120
nishihara,26.1842,127.7558,288.15,67,20,3.09,JP,1612475120
rawlins,41.7911,-107.2387,270.15,46,75,12.86,US,1612475120
narsaq,60.9167,-46.05,264.15,57,72,1.54,GL,1612475120
ilulissat,69.2167,-51.1,255.15,35,0,5.66,GL,1612475120
maniitsoq,65.4167,-52.9,260.5,72,0,3.87,GL,1612475120
bilibino,68.0546,166.4372,243.53,75,46,4.8,RU,1612475120
sur,22.5667,59.5289,291.59,70,0,2.09,OM,1612475120
parana,-31.732,-60.5238,302.59,42,5,3.58,AR,1612475121
bengkulu,-3.8004,102.2655,297.42,85,100,2.13,ID,1612474951
caririacu,-7.0422,-39.2836,305.15,43,20,2.57,BR,1612475121
san carlos de bariloche,-41.1456,-71.3082,306.15,9,0,6.69,AR,1612475121
egvekinot,66.3167,-179.1667,242.58,84,100,8.92,RU,1612475121
praia da vitoria,38.7333,-27.0667,285.15,76,75,10.64,PT,1612474953
boende,-0.2167,20.8667,296.45,94,100,0.87,CD,1612474892
dwarka,22.2394,68.9678,293.3,69,0,5.24,IN,1612475121
ibra,22.6906,58.5334,286.36,87,0,1.14,OM,1612475122
karratha,-20.7377,116.8463,299.99,81,76,3.84,AU,1612475122
marzuq,14.4,46.4667,287.52,56,0,1.64,YE,1612475122
buala,-8.145,159.5921,300.67,78,99,3.22,SB,1612475122
metro,-5.1131,105.3067,295.91,93,100,4.01,ID,1612475122
oriximina,-1.7656,-55.8661,302.68,62,70,1.36,BR,1612475122
qostanay,53.1667,63.5833,273.94,98,100,2.96,KZ,1612474924
ushtobe,45.2514,77.9838,270.0,90,100,1.02,KZ,1612475122
port alfred,-33.5906,26.891,292.59,86,18,0.89,ZA,1612475123
scarborough,54.2797,-0.4044,279.26,96,100,3.13,GB,1612475106
praya,14.9215,-23.5087,294.15,73,75,5.14,CV,1612474833
lodja,-3.4833,23.4333,294.88,90,81,0.96,CD,1612475123
los llanos de aridane,28.6585,-17.9182,289.15,48,0,3.09,ES,1612475123
chumikan,54.7183,135.315,245.25,83,100,12.75,RU,1612474924
esqueda,30.7167,-109.5833,293.15,25,67,9.38,MX,1612475123
carnarvon,-24.8667,113.6333,298.81,82,100,9.58,AU,1612475124
zalantun,48.0,122.7167,254.36,87,96,1.03,CN,1612475124
guiglo,6.5456,-7.4966,299.14,73,48,2.09,CI,1612475124
saint george,37.1041,-113.5841,285.93,25,1,2.06,US,1612474835
surin,14.8818,103.4936,293.15,68,50,3.08,TH,1612475124
ponta do sol,32.6667,-17.1,282.59,68,97,8.05,PT,1612475124
port hardy,50.6996,-127.4199,278.15,100,90,3.09,CA,1612475124
san cristobal,7.7669,-72.225,304.15,51,40,5.66,VE,1612475025
yumen,40.2833,97.2,271.28,62,16,6.87,CN,1612475125
pozo colorado,-23.4923,-58.7972,300.8,55,8,2.34,PY,1612475125
constitucion,-35.3333,-72.4167,292.72,72,13,2.14,CL,1612475125
hualmay,-11.0964,-77.6139,296.12,70,93,3.26,PE,1612475125
kismayo,-0.3582,42.5454,297.83,83,0,6.16,SO,1612475125
labuhan,-6.8844,112.2051,298.88,86,100,5.47,ID,1612475125
anchorage,61.2181,-149.9003,264.26,79,90,1.54,US,1612474870
eyl,7.9803,49.8164,294.82,77,0,5.29,SO,1612475125
mar del plata,-38.0023,-57.5575,293.15,64,20,6.17,AR,1612475100
komsomolskiy,40.4272,71.7189,274.15,69,6,4.12,UZ,1612475125
hambantota,6.1241,81.1185,297.15,88,20,4.63,LK,1612475126
nome,64.5011,-165.4064,257.59,55,90,7.2,US,1612474886
sterling,39.0062,-77.4286,281.15,23,40,2.06,US,1612474880
nandu,22.8525,110.8233,288.12,70,0,0.73,CN,1612475126
rawson,-43.3002,-65.1023,306.86,16,0,10.05,AR,1612475126
mount gambier,-37.8333,140.7667,283.15,100,90,2.57,AU,1612475126
lompoc,34.6391,-120.4579,291.15,48,1,5.14,US,1612475126
katsuura,35.1333,140.3,278.15,48,20,8.23,JP,1612474925
sorong,-0.8833,131.25,300.74,75,100,3.42,ID,1612475081
cantaura,9.3057,-64.3584,303.23,51,61,5.25,VE,1612475127
duobao,30.67,112.6895,278.71,95,100,2.37,CN,1612475127
changji,44.0167,87.3167,260.15,85,78,0.93,CN,1612474887
norman wells,65.282,-126.8329,232.15,66,20,1.54,CA,1612475127
dudinka,69.4058,86.1778,238.41,85,96,2.09,RU,1612475127
klaksvik,62.2266,-6.589,274.15,69,20,8.23,FO,1612475127
bosaso,11.2842,49.1816,295.25,68,12,1.89,SO,1612475127
kiunga,-6.1219,141.2906,297.15,96,100,1.06,PG,1612475127
bambous virieux,-20.3428,57.7575,299.82,78,40,4.63,MU,1612475128
teya,60.3778,92.6267,255.41,90,99,1.88,RU,1612475128
piacabucu,-10.4056,-36.4344,299.6,77,0,6.03,BR,1612475128
hastings,50.8552,0.5729,282.04,88,66,1.79,GB,1612475128
torbay,47.6666,-52.7314,279.82,100,90,2.06,CA,1612475128
shakhtinsk,49.71,72.5872,271.15,80,40,6.0,KZ,1612475128
mopipi,-21.1833,24.8833,297.79,74,98,1.62,BW,1612475128
coquimbo,-29.9533,-71.3436,290.15,77,75,5.66,CL,1612475128
kimbe,-5.5502,150.1429,297.96,91,100,1.74,PG,1612475129
jacareacanga,-6.2222,-57.7528,301.58,71,62,1.25,BR,1612475129
luderitz,-26.6481,15.1594,294.02,59,0,9.37,NA,1612474958
buin,-33.7333,-70.75,304.15,33,0,3.6,CL,1612475129
abbeville,50.1,1.8333,281.48,78,100,3.63,FR,1612475129
grindavik,63.8424,-22.4338,275.15,93,90,10.29,IS,1612475129
tomohon,1.3346,124.8392,297.15,94,40,1.03,ID,1612475129
karangampel,-6.4622,108.4519,298.28,88,100,7.14,ID,1612475129
mirabela,-16.2628,-44.1644,302.15,51,75,4.12,BR,1612475130
saldanha,-33.0117,17.9442,290.15,82,0,4.63,ZA,1612475130
burnie,-41.0667,145.9167,294.26,95,99,3.58,AU,1612475130
loughton,52.0304,-0.7864,281.48,91,100,0.45,GB,1612474881
odesskoye,54.2111,72.9651,264.85,97,97,3.72,RU,1612475130
sitka,57.0531,-135.33,276.15,100,75,4.12,US,1612475130
at-bashi,41.1702,75.8106,259.93,63,13,0.74,KG,1612475130
jinan,36.6683,116.9972,281.48,43,100,0.45,CN,1612475130
balkanabat,39.5108,54.3671,284.2,45,100,1.57,TM,1612474988
florianopolis,-27.6146,-48.5012,300.37,88,75,4.12,BR,1612475018
sao filipe,14.8961,-24.4956,295.36,79,100,4.02,CV,1612475131
reno,39.5296,-119.8138,279.15,39,40,1.49,US,1612474518
kirkenes,69.7271,30.0458,268.15,86,75,5.14,NO,1612475131
novouzensk,50.4592,48.1431,276.24,97,100,4.59,RU,1612475131
guisijan,11.0932,122.0461,298.76,76,68,2.25,PH,1612475131
novoagansk,61.9449,76.6625,248.04,90,94,2.41,RU,1612475131
banda aceh,5.5577,95.3222,298.14,79,56,5.38,ID,1612475079
man,7.4125,-7.5538,300.53,51,66,1.71,CI,1612475132
hilo,19.7297,-155.09,297.15,73,90,6.69,US,1612475030
nara,34.6851,135.8049,275.37,80,20,1.03,JP,1612475132
urengoy,65.9667,78.3667,244.54,88,93,3.2,RU,1612475132
kodiak,57.79,-152.4072,270.15,74,1,1.54,US,1612475010
boddam,57.4667,-1.7833,275.37,93,90,9.26,GB,1612474915
deputatskiy,69.3,139.9,242.97,89,94,1.87,RU,1612475132
tromso,69.6496,18.957,272.15,93,75,6.17,NO,1612474941
jardim,-21.4803,-56.1381,297.7,81,61,3.51,BR,1612475133
port elizabeth,-33.918,25.5701,294.15,83,40,2.06,ZA,1612475133
migori,-1.0634,34.4731,291.88,74,37,1.04,KE,1612475133
khorramshahr,30.4397,48.1664,289.15,72,40,2.06,IR,1612475133
anadyr,64.75,177.4833,255.15,78,75,9.0,RU,1612475133
geraldton,-28.7667,114.6,297.15,33,40,11.32,AU,1612475025
agadez,19.75,10.25,288.14,31,0,2.37,NE,1612475133
half moon bay,37.4636,-122.4286,289.15,50,1,6.69,US,1612474990
vestmanna,62.1564,-7.1664,274.15,69,20,8.23,FO,1612475134
zorritos,-3.6805,-80.6782,302.15,65,90,2.57,PE,1612475134
tual,-5.6667,132.75,299.55,88,100,13.17,ID,1612475134
saint-pierre,-21.3393,55.4781,299.15,73,38,2.57,RE,1612475134
cascais,38.6979,-9.4215,285.37,89,100,1.34,PT,1612475102
dunedin,-45.8742,170.5036,285.93,68,32,9.83,NZ,1612475134
asau,46.4333,26.4,279.26,81,0,4.63,RO,1612475134
ayolas,-27.4,-56.9,297.56,71,5,3.45,PY,1612475135
jiaonan,35.8786,119.9753,278.15,75,0,4.0,CN,1612475135
onega,63.9061,38.1404,258.47,93,100,4.17,RU,1612475135
ahuimanu,21.4447,-157.8378,296.15,64,75,8.23,US,1612475135
chapais,49.7834,-74.8492,273.15,55,1,2.06,CA,1612475135
hasaki,35.7333,140.8333,275.15,55,20,3.09,JP,1612474948
kumburgaz,41.0211,28.4772,286.48,93,0,3.6,TR,1612475135
yarada,17.65,83.2667,290.15,82,13,1.03,IN,1612475135
shirokiy,49.758,129.523,244.7,87,87,2.1,RU,1612475136
tuatapere,-46.1333,167.6833,290.56,57,74,1.34,NZ,1612475136
magistralnyy,56.1725,107.4458,256.96,92,100,1.1,RU,1612475136
jalu,29.0331,21.5482,286.86,66,0,3.77,LY,1612475136
sigli,5.3848,95.9609,298.3,78,23,2.23,ID,1612475136
zhanaozen,43.3,52.8,279.53,72,96,4.64,KZ,1612475136
alice springs,-23.7,133.8833,295.15,73,90,4.12,AU,1612475023
chibombo,-14.6569,28.0706,291.83,95,97,1.32,ZM,1612475137
calama,-22.4667,-68.9333,298.15,18,0,12.86,CL,1612475137
gigmoto,13.7796,124.39,298.71,85,81,7.12,PH,1612474842
adrar,20.5022,-10.0711,296.65,17,76,3.62,MR,1612475137
rio rancho,35.2334,-106.6645,284.82,23,1,5.14,US,1612475137
krasnoselkup,65.7,82.4667,244.99,87,87,3.15,RU,1612475137
brokopondo,4.75,-55.1667,299.13,77,99,6.49,SR,1612475137
puerto escondido,15.85,-97.0667,302.15,70,20,5.14,MX,1612475138
oistins,13.0667,-59.5333,300.15,61,20,8.75,BB,1612475138
nchelenge,-9.3451,28.734,294.83,80,100,2.95,ZM,1612475138
hamilton,39.1834,-84.5333,275.37,69,90,7.2,US,1612474985
sretensk,52.2453,117.7093,247.93,87,100,0.49,RU,1612475138
serebryansk,49.6925,83.2892,270.15,80,90,3.0,KZ,1612475138
kristianstad,56.0313,14.1524,267.04,93,90,1.54,SE,1612475138
dakar,14.6937,-17.4441,292.15,94,75,7.72,SN,1612474473
antalaha,-14.9003,50.2788,297.14,89,92,2.26,MG,1612475138
the valley,18.217,-63.0578,302.15,74,20,5.66,AI,1612475138
ulaanbaatar,47.9077,106.8832,257.15,78,40,1.0,MN,1612475134
tetouan,35.5711,-5.3724,288.15,88,75,2.06,MA,1612475139
palmer,42.1584,-72.3287,276.15,55,20,4.63,US,1612475139
luena,-11.7833,19.9167,290.14,94,36,0.79,AO,1612474940
sibenik,43.7272,15.9058,283.71,93,0,1.03,HR,1612475139
campbell river,50.0163,-125.2446,278.71,100,90,2.06,CA,1612474885
saint-ambroise,48.5501,-71.3324,271.15,74,97,4.12,CA,1612475139
porto walter,-8.2686,-72.7439,300.48,81,69,1.94,BR,1612475139
fukue,32.6881,128.8419,282.68,51,22,2.68,JP,1612475140
anan,33.9167,134.65,274.15,75,20,3.09,JP,1612475140
semaria,24.3073,79.9718,289.79,37,82,1.41,IN,1612475140
vanderhoof,54.0166,-124.0198,267.24,96,100,0.96,CA,1612475000
maridi,4.9158,29.4742,300.85,24,23,0.81,SS,1612475140
pemangkat,1.1667,108.9667,297.6,92,100,3.59,ID,1612475140
chino valley,34.7575,-112.4538,285.93,30,1,4.41,US,1612475140
luganville,-15.5333,167.1667,301.84,68,96,1.31,VU,1612475141
inirida,3.8653,-67.9239,301.78,74,68,0.53,CO,1612475141
male,4.1748,73.5089,301.15,78,75,5.66,MV,1612474973
havre-saint-pierre,50.2334,-63.5986,273.15,100,90,3.09,CA,1612475141
makokou,0.5738,12.8642,295.65,90,80,1.22,GA,1612475141
san jose,37.3394,-121.895,289.82,27,20,2.57,US,1612475013
vardo,70.3705,31.1107,270.15,86,75,7.72,NO,1612475141
monterey,36.2505,-121.2516,289.26,46,0,4.02,US,1612475142
sunndalsora,62.6754,8.5515,267.15,63,47,2.06,NO,1612475142
mackay,-21.15,149.2,298.15,94,75,3.09,AU,1612475142
yerbogachen,61.2767,108.0108,244.43,87,95,0.7,RU,1612475142
ostrovnoy,68.0531,39.5131,261.07,93,100,9.63,RU,1612474997
mudon,16.2578,97.7164,295.43,60,3,1.29,MM,1612475142
atagay,55.1033,99.3875,260.52,92,100,3.54,RU,1612475142
cayenne,4.9333,-52.3333,300.15,78,90,4.12,GF,1612474875
pitea,65.3172,21.4794,265.15,93,90,3.09,SE,1612475143
bac lieu,9.285,105.7244,297.23,80,43,6.34,VN,1612475143
srednekolymsk,67.45,153.6833,252.89,81,100,8.26,RU,1612475143
biak,-0.9131,122.8766,297.75,76,100,0.75,ID,1612475143
milan,45.4643,9.1895,281.48,100,75,1.54,IT,1612474864
suba,10.8438,121.0102,299.99,81,57,12.07,PH,1612475143
wainwright,52.839,-110.8572,260.15,78,100,5.22,CA,1612475143
fortuna,40.5982,-124.1573,285.93,66,1,6.17,US,1612475143
miram shah,33.0086,70.0697,282.07,50,0,2.4,PK,1612475143
ankpa,7.3706,7.6253,298.62,18,33,0.14,NG,1612475144
sainte-marie,-20.8968,55.5496,298.15,78,75,4.12,RE,1612475144
dapaong,10.8639,0.205,299.97,16,0,2.78,TG,1612475144
mpanda,-6.3655,31.0409,291.6,92,27,0.16,TZ,1612475144
lakota,5.8528,-5.6883,297.54,86,2,2.1,CI,1612475042
porto novo,6.4965,2.6036,300.84,79,0,4.29,BJ,1612475144
huarmey,-10.0681,-78.1522,296.7,66,99,3.64,PE,1612475144
biltine,14.5333,20.9167,293.21,24,0,6.97,TD,1612475144
anito,12.4497,125.2886,298.6,89,75,5.3,PH,1612475145
sinegorye,62.0788,150.477,245.95,84,100,1.85,RU,1612475145
pandan,14.0453,124.1694,298.65,85,73,8.29,PH,1612475145
natal,-5.795,-35.2094,301.15,69,0,4.63,BR,1612474971
skibbereen,51.55,-9.2667,279.15,93,75,4.63,IE,1612475145
marshall,34.3834,-86.3333,285.37,46,1,4.12,US,1612475145
kirundo,-2.5833,30.1667,291.15,94,40,1.03,BI,1612475145
virginia beach,36.8529,-75.978,285.15,16,20,3.6,US,1612474909
chazuta,-6.5742,-76.1367,300.15,89,90,1.54,PE,1612475146
port hedland,-20.3167,118.5667,300.15,89,21,3.6,AU,1612475146
mount isa,-20.7333,139.5,301.15,69,96,5.66,AU,1612475146
gobabis,-22.45,18.9667,295.67,65,90,4.49,NA,1612475146
ginir,7.1333,40.7,286.53,34,0,2.26,ET,1612475146
batagay,67.6333,134.6333,233.79,80,100,0.56,RU,1612475146
vostok,46.4856,135.8833,242.39,85,28,2.65,RU,1612475147
krasnyy klyuch,55.3863,56.6529,274.89,96,100,2.64,RU,1612475147
jarinu,-23.1014,-46.7283,303.15,62,20,2.06,BR,1612475147
goure,13.9835,10.2704,296.48,18,0,4.02,NE,1612475147
la cumbre,-30.982,-64.4914,301.48,44,20,4.12,AR,1612475147
fare,-16.7,-151.0167,300.66,66,33,2.76,PF,1612475147
wawa,9.9022,4.4192,300.9,17,0,2.14,NG,1612475147
raul soares,-20.1022,-42.4519,297.13,78,1,2.45,BR,1612475147
okhotsk,59.3833,143.3,255.72,88,100,5.25,RU,1612475148
evensk,61.95,159.2333,255.88,89,100,10.24,RU,1612475148
richards bay,-28.783,32.0377,297.39,90,100,4.37,ZA,1612475148
kabanjahe,3.1001,98.4908,297.15,100,40,1.03,ID,1612475148
mbandaka,0.0487,18.2603,296.32,83,98,2.19,CD,1612475148
aykhal,66.0,111.5,234.86,80,66,1.81,RU,1612475148
vaitape,-16.5167,-151.75,300.54,68,43,2.84,PF,1612475148
ust-omchug,61.15,149.6333,246.67,84,99,3.32,RU,1612475148
oxchuc,16.85,-92.4167,294.39,35,0,1.78,MX,1612475148
saint-augustin,51.226,-58.6502,274.48,96,98,1.77,CA,1612475149
ambilobe,-13.2,49.05,296.83,93,49,0.84,MG,1612475149
watsa,3.0372,29.5355,297.62,36,80,1.48,CD,1612475149
aqtobe,50.2797,57.2072,275.15,93,90,5.0,KZ,1612475149
derzhavinsk,51.1,66.3167,271.2,99,100,5.53,KZ,1612475149
azle,32.8951,-97.5459,289.26,39,1,6.69,US,1612475149
amapa,1.0,-52.0,296.38,97,100,1.33,BR,1612475149
alofi,-19.0595,-169.9187,299.15,89,90,4.63,NU,1612475149
cap malheureux,-19.9842,57.6142,299.82,75,9,3.13,MU,1612475150
erzin,36.9559,36.2,287.59,61,16,4.92,TR,1612475150
sorkjosen,69.8,20.9333,272.41,94,100,7.24,NO,1612475150
grand gaube,-20.0064,57.6608,299.82,75,13,3.13,MU,1612475150
bilma,18.6853,12.9164,290.94,28,0,3.2,NE,1612475150
alta floresta,-9.8756,-56.0861,299.31,84,96,1.06,BR,1612475150
kaniama,-7.5667,24.1833,292.37,91,19,0.16,CD,1612475150
ankazobe,-18.3167,47.1167,292.15,94,75,3.6,MG,1612475150
charleston,32.7766,-79.9309,285.15,50,1,3.6,US,1612475150
karasjok,69.4719,25.5112,270.15,100,75,5.14,NO,1612475151
araouane,18.9048,-3.5265,296.9,15,83,2.92,ML,1612475038
rajapur,25.3833,81.15,287.97,48,40,2.36,IN,1612475151
tinskoy,56.1525,96.9161,260.45,94,100,3.87,RU,1612475151
husavik,66.0449,-17.3389,268.15,74,0,4.12,IS,1612475151
charlottesville,38.0293,-78.4767,285.15,16,1,2.21,US,1612475013
nelson bay,-32.7167,152.15,299.26,73,0,4.63,AU,1612475151
lorengau,-2.0226,147.2712,300.61,77,99,2.11,PG,1612475151
camana,-16.6228,-72.7111,295.98,70,99,2.61,PE,1612475151
broome,42.2506,-75.833,275.15,51,1,2.57,US,1612475152
lensk,60.7253,114.9278,248.04,87,99,1.1,RU,1612475152
wakkanai,45.4094,141.6739,263.66,93,100,11.89,JP,1612474966
berlevag,70.8578,29.0864,272.15,69,75,11.32,NO,1612475152
monywa,22.1167,95.1333,290.31,46,0,1.79,MM,1612475152
tadine,-21.55,167.8833,300.0,81,8,7.27,NC,1612475152
quirinopolis,-18.4483,-50.4517,301.05,58,86,0.81,BR,1612475152
umiray,15.2206,121.4111,297.11,82,89,8.03,PH,1612475153
hyeres,43.1167,6.1167,286.15,82,90,1.54,FR,1612475153
cizer,47.0667,22.8833,281.15,71,75,2.57,RO,1612475153
pula,44.8683,13.8481,284.15,87,90,2.57,HR,1612475153
vega de alatorre,20.0333,-96.6333,297.83,69,0,5.6,MX,1612475153
pingzhuang,42.0372,119.2889,266.1,87,0,2.64,CN,1612475153
urcos,-13.6861,-71.6228,292.15,34,40,6.69,PE,1612475153
liverpool,53.4106,-2.9779,280.15,93,90,4.12,GB,1612474856
necochea,-38.5473,-58.7368,294.82,66,0,4.67,AR,1612475153
carlisle,40.2015,-77.1889,279.15,31,1,3.09,US,1612474863
wanning,18.8003,110.3967,292.17,85,52,2.24,CN,1612475154
almazar,40.3217,69.0106,273.15,86,11,2.0,UZ,1612475154
ribeira grande,38.5167,-28.7,286.15,62,40,1.54,PT,1612475154
olenegorsk,68.15,33.3,257.62,94,53,2.63,RU,1612475154
sayansk,54.1088,102.1648,260.2,95,100,3.67,RU,1612475154
kenai,60.5544,-151.2583,265.15,79,90,2.06,US,1612475154
salalah,17.0151,54.0924,295.15,73,40,1.54,OM,1612475155
san quintin,30.4833,-115.95,289.82,60,71,9.17,MX,1612475155
sechura,-5.5569,-80.8222,301.1,55,40,6.41,PE,1612475155
trairi,-3.2778,-39.2689,299.13,77,54,4.18,BR,1612475155
luoyang,34.6836,112.4536,282.59,99,76,3.83,CN,1612475051
chunoyar,57.4467,97.3217,259.36,93,100,2.6,RU,1612475155
ucluelet,48.9329,-125.5528,280.93,100,90,5.75,CA,1612475064
emerald,-23.5333,148.1667,297.15,83,90,3.6,AU,1612475155
san juan,-31.5375,-68.5364,304.78,18,0,5.79,AR,1612475155
lagoa,39.05,-27.9833,285.85,71,2,10.83,PT,1612475156
mehamn,71.0357,27.8492,271.15,74,90,8.75,NO,1612475156
jiwani,25.05,61.7417,292.41,52,0,3.61,PK,1612475156
garden city,42.3256,-83.331,274.15,69,90,4.12,US,1612475156
nipawin,53.3668,-104.0009,257.15,66,1,4.63,CA,1612475156
conceicao do araguaia,-8.2578,-49.2647,298.54,88,99,2.07,BR,1612475156
chuy,-33.6971,-53.4616,292.16,75,64,6.32,UY,1612475156
muros,42.7762,-9.0603,283.71,89,92,1.34,ES,1612475157
shimoda,34.6667,138.95,273.71,73,0,0.45,JP,1612474888
santa fe,-31.6333,-60.7,302.59,44,2,1.79,AR,1612475012
kahului,20.8947,-156.47,295.15,64,90,6.17,US,1612475157
poronaysk,49.2167,143.1167,242.2,82,14,1.32,RU,1612475157
cabo san lucas,22.8909,-109.9124,301.15,34,1,2.06,MX,1612475157
makakilo city,21.3469,-158.0858,296.15,60,90,2.57,US,1612475157
bandarbeyla,9.4942,50.8122,295.7,73,9,5.86,SO,1612475157
amazar,53.858,120.875,242.58,82,17,1.6,RU,1612475158
erenhot,43.6475,111.9767,265.05,90,3,5.65,CN,1612475158
aleppo,36.25,37.5,284.16,63,95,4.34,SY,1612474882
qaqortoq,60.7167,-46.0333,264.15,57,98,1.54,GL,1612475011
north bend,43.4065,-124.2243,284.15,71,20,3.6,US,1612475158
robertsport,6.7533,-11.3686,299.8,88,36,4.0,LR,1612475158
moerai,-22.4333,-151.3333,300.39,73,14,5.31,PF,1612475159
houston,29.7633,-95.3633,299.15,60,75,5.66,US,1612474805
isangel,-19.55,169.2667,300.15,78,40,3.09,VU,1612475159
terryville,40.909,-73.0651,277.15,48,1,4.12,US,1612475159
tecoanapa,16.5167,-98.75,301.31,66,0,4.46,MX,1612475159
bull savanna,17.8868,-77.5902,298.8,71,24,3.93,JM,1612475159
prince rupert,54.3161,-130.3201,278.15,93,90,3.09,CA,1612475050
arroyo,41.6096,-4.7969,280.37,100,90,1.03,ES,1612475159
progreso,21.2833,-89.6667,304.26,30,1,2.06,MX,1612475159
santa cruz de la palma,28.6835,-17.7642,289.15,48,0,3.09,ES,1612475161
juneau,58.3019,-134.4197,272.15,86,75,0.83,US,1612475161
kirakira,-10.4544,161.9205,300.06,82,100,4.91,SB,1612475161
whitianga,-36.8333,175.7,289.66,70,99,2.94,NZ,1612475161
anloga,5.7947,0.8973,302.15,84,20,5.14,GH,1612475161
bud,39.447,-86.1758,274.26,94,100,9.87,US,1612475162
ust-kuyga,70.0167,135.6,239.29,82,97,2.68,RU,1612475162
dubbo,-32.25,148.6167,295.15,68,90,3.6,AU,1612474931
lazaro cardenas,17.9583,-102.2,300.3,64,0,3.63,MX,1612475162
saint anthony,45.0205,-93.218,267.15,63,75,7.2,US,1612474936
hassleholm,56.1591,13.7664,267.04,93,90,1.54,SE,1612475162
wajima,37.4,136.9,276.51,78,85,6.14,JP,1612475162
pacific grove,36.6177,-121.9166,288.15,54,1,4.12,US,1612474930
kargasok,59.0556,80.8572,252.69,92,72,3.06,RU,1612475163
haines junction,60.7522,-137.5108,249.15,53,97,0.27,CA,1612475163
visby,57.6409,18.296,269.15,74,75,5.66,SE,1612475163
gualeguay,-33.1416,-59.3097,297.65,47,0,2.62,AR,1612475163
altay,47.8667,88.1167,265.27,90,91,0.36,CN,1612475163
adre,13.4667,22.2,291.82,26,39,8.87,TD,1612475163
muzhi,65.3667,64.6667,249.06,90,99,2.43,RU,1612475163
north platte,41.1239,-100.7654,280.15,33,1,7.2,US,1612475164
jiayuguan,39.8167,98.3,268.05,67,40,0.38,CN,1612475164
ambon,-3.6954,128.1814,297.15,94,40,2.06,ID,1612475164
hobyo,5.3505,48.5268,297.75,80,6,6.71,SO,1612475164
asosa,10.0667,34.5333,292.46,27,6,2.01,ET,1612475164
beringovskiy,63.05,179.3167,254.96,92,100,4.79,RU,1612475164
kyaikkami,16.08,97.5675,298.71,67,43,1.87,MM,1612475165
salym,60.0625,71.4789,258.18,94,100,1.53,RU,1612475165
barcelos,41.5388,-8.6151,282.59,93,40,1.54,PT,1612475165
qandala,11.472,49.8728,295.64,67,52,2.43,SO,1612475165
kudat,6.8837,116.8477,300.15,83,20,2.57,MY,1612475165
marawi,7.9986,124.2928,295.93,89,76,3.58,PH,1612475165
bonga,7.2833,36.2333,290.41,53,0,0.59,ET,1612475166
pontal do parana,-25.6533,-48.5128,293.15,94,96,12.52,BR,1612475166
faya,18.3851,42.4509,290.15,51,0,2.06,SA,1612475166
ondangwa,-17.9167,15.95,301.15,51,31,2.06,NA,1612475166
jibuti,11.5,42.5,295.15,68,1,1.54,DJ,1612475166
college,64.8569,-147.8028,248.71,76,40,1.17,US,1612475166
shache,38.4167,77.2406,270.15,83,0,0.87,CN,1612475166
marystown,47.1666,-55.1483,278.68,98,95,1.3,CA,1612475166
thinadhoo,0.5333,72.9333,301.0,76,76,4.5,MV,1612475166
barcelona,41.3888,2.159,286.48,87,75,0.31,ES,1612474513
hun,29.1268,15.9477,286.48,87,64,3.27,LY,1612475167
sembakung,3.8167,117.25,298.15,94,40,1.54,ID,1612475167
mitsamiouli,-11.3847,43.2844,301.46,66,12,1.51,KM,1612475167
olinda,-8.0089,-34.8553,300.15,65,40,3.09,BR,1612475167
tilichiki,60.4667,166.1,251.41,92,79,5.58,RU,1612474984
celestun,20.8667,-90.4,297.86,48,0,1.99,MX,1612475167
andenes,69.3143,16.1194,275.15,69,75,12.35,NO,1612475167
bhainsdehi,21.6467,77.6325,288.17,33,0,0.74,IN,1612475168
namibe,-15.1961,12.1522,295.74,71,0,4.13,AO,1612475168
orimattila,60.8049,25.7296,258.15,85,0,3.6,FI,1612475168
damaturu,11.747,11.9608,294.25,23,0,4.49,NG,1612475168
abu samrah,35.3029,37.1841,284.58,78,93,5.7,SY,1612475168
kaele,10.1092,14.4508,298.48,18,15,6.81,CM,1612475168
oksfjord,70.2396,22.3479,272.15,69,75,5.66,NO,1612475168
sabha,27.0377,14.4283,286.25,39,0,3.29,LY,1612475168
leningradskiy,69.3833,178.4167,240.21,85,100,4.52,RU,1612475169
samarai,-10.6167,150.6667,300.71,76,19,1.91,PG,1612475169
portel,-1.9356,-50.8211,300.23,74,98,3.17,BR,1612475169
margate,51.3813,1.3862,280.93,89,74,1.79,GB,1612475169
shubarshi,48.5872,57.1869,273.44,95,89,3.4,KZ,1612475169
pangnirtung,66.1451,-65.7125,257.15,85,90,2.06,CA,1612475169
dejen,10.1667,38.1333,287.41,36,60,0.91,ET,1612475169
waingapu,-9.6567,120.2641,298.42,84,95,4.19,ID,1612475169
solnechnyy,50.7214,136.6319,243.31,81,27,1.08,RU,1612475170
yar-sale,66.8333,70.8333,243.68,87,64,3.11,RU,1612475026
syracuse,37.0881,15.2792,289.82,77,0,5.14,IT,1612475170
dongsheng,39.8161,109.9776,269.69,81,0,9.05,CN,1612475170
batticaloa,7.7102,81.6924,298.08,80,100,4.77,LK,1612475170
zhangye,38.9342,100.4517,270.2,73,0,2.76,CN,1612475103
carutapera,-1.195,-46.02,299.94,79,59,3.4,BR,1612475170
soyo,-6.1349,12.3689,300.44,84,100,3.95,AO,1612475170
